site_name_zh-Latn-pinyin,not_used,building_concat_name,building_local_name,modified,batch,number_in_batch,number_in_category_3,building_name_zh-Latn-pinyin,building_name_en,building_name_zh-Hans,building_date,building_start,building_end,decimal_latitude,decimal_longitude,verbatim_latitude,verbatim_longitude,significance,most_recent_doc,notes,ct_angled_bracket_arm,corner_angled_bracket_arm,ic_angled_bracket_arm,ic_match_ct,#_of_ic_in_central_bay,pubaifang,1st_step_touxin,1st_step_jixin,cejiao,pizhu_xiaang,qinmian_xiaang,pizhu-qinmian_xiaang,number_of_xiaang,ang-shaped_shuatou,beveled_linggong,chamfered_linggong,front_facade_bays
Damiao,http://art.vanderbilt.edu/Damiao_Feilaidian,Damiao_Feilaidian,Feilaidian,,3,114,62,Feilaidian,,,993-1327,993,1327,,,,,animal motifs on bracketing: likely a Yuan structure...,*,,,,,,,,,,,,,,,,,,
Yunyansi,http://art.vanderbilt.edu/Yunyansi,Yunyansi,,,3,115,63,,,,,,,,,,,song revolving sutra repository with angled bracket arms,*,,,,,,,,,,,,,,,,,,
Guangdesi,http://art.vanderbilt.edu/Guangdesi,Guangdesi,,,6,703,406,,,,,,,,,,,"no date information in ZGMSCD, 910; Song stele; see: http://baike.baidu.com/view/113543.htm",n/a?,,,,,,,,,,,,,,,,,,
Qufu,http://art.vanderbilt.edu/Qufu_Kongmiao,Qufu_Kongmiao,Kongmiao,,1,99,52,Kongmiao,Jin West Pavilion,,1195,1195,1195,35.5955833,116.98405,,,,*,,0,0,0,1,2,1,0,1,1,0,1,0,1,0,0,1,
Daimiao,http://art.vanderbilt.edu/Daimiao,Daimiao,,,3,125,73,,,,,,,,,,,"originally built in 1009, modified numerous times. Wall paintings in Song style=ZGMSCD, 626",*,,,,,,,,,,,,,,,,,,
Lingyansi,http://art.vanderbilt.edu/Lingyansi_Pizhita,Lingyansi_Pizhita,Pizhita,,2,21,6,Pizhita,,辟支塔,1057,1057,1057,36.3632666,116.977683,,,Song dynasty; corner bracket sets on front facade,fall 2009,for date see: zgmscd 585,1,1,1,0,3,1,0,1,？,0,0,0,0,0,0,1,
Wanrong,http://art.vanderbilt.edu/Wanrong_Jiwangmiao,Wanrong_Jiwangmiao,Jiwangmiao,,5,224,30,Jiwangmiao,,,,,,,,,,,1998,,,,,,,,,,,,,,,,,,
Xining,http://art.vanderbilt.edu/Xining_Shoushengsi,Xining_Shoushengsi,Shoushengsi,,6,379,82,Shoushengsi,,,,,,,,,,"Main Hall Song?, see see 中國 文物 地圖集 山西分冊, 下, 978",*,, , , , , , ,,,,,,,,,,,
Yanqingsi,http://art.vanderbilt.edu/Yanqingsi,Yanqingsi,,,6,381,84,,Main Hall,,1115-1234,1115,1234,38.7483333,113.0625,38˚ 44.90' N (Magellan),113˚ 03.75' E,"中國 文物 地圖集 山西分冊,中 580",1999?,,0,0,1,0,1,1,0,1,1,0,0,1,1,1,1,,
Nanchansi,http://art.vanderbilt.edu/Nanchansi,Nanchansi,,,1,79,32,,,大殿,782,782,782,38.7013333,113.114,38˚ 42.08' N (Magellan),113˚ 06.84 E,early timber architecture,1999,,0,0,0,0,0,0,1,0,1,0,0,0,0,0,0,0,
Foguangsi,http://art.vanderbilt.edu/Foguangsi_Dongdadian,Foguangsi_Dongdadian,Dongdadian,,1,80,33,Dongdadian,,東大殿,857,857,857,38.8695,113.387333,38˚ 52.14' N (Magellan),113˚ 23.22 E,857 early diantang,1999,,0,0,0,0,1,0,1,0,1,1,0,0,2,0,0,1,
Foguangsi,http://art.vanderbilt.edu/Foguangsi_Wenshudian,Foguangsi_Wenshudian,Wenshudian,,1,80,33,Wenshudian,,文殊殿,1137,1137,1137,38.8695,113.387333,38˚ 52.14' N (Magellan),113˚ 23.22 E,"1137 early Jin dynasty, use of xiegong in central bay; cloud-shaped arm  instead of guazigong makes ct brackt sets jixin; lingong single timber across façade but made to look beveled",1999,lat/long from Dongdadian,0,0,1,0,1,1,1,1, ,0,0,1,1,1,1,0,
Sanjunmiao,http://art.vanderbilt.edu/Sanjunmiao,Sanjunmiao,,,5,261,67,,,,1175,1175,1175,36.03716667,113.6121667,36˚ 2.23'N (Garmin),113˚ 9.73'E,"Main Hall from 1175, see; 中國 文物 地圖集 山西分冊, 中, 336",*,,0,0,0,0,0,1,0,1,1,0,1,0,1,0,0,1,
Shanhuasi,http://art.vanderbilt.edu/Shanhuasi_Tianwangdian,Shanhuasi_Tianwangdian,Tianwangdian,,1,88,41,Tianwangdian,,天王殿,1128-1143,1128,1143,40.0854,113.293533,40˚ 05.124' N (Garmin),113˚ 17.612 E ',Shanmen--天會六－皇統三 (1128-1143),2009,,0,0,0,1,2,1,0,1,,0,1,0,1,0,0,1,
Shanhuasi,http://art.vanderbilt.edu/Shanhuasi_Sanshengdian,Shanhuasi_Sanshengdian,Sanshengdian,,1,88,41,Sanshengdian,,三聖殿,1128-1143,1128,1143,40.0857166,113.29345,40˚ 05.143’ N,113˚ 17.607' E,"天會六－皇統三 (1128-1143, linggong for angled bracket arm is angled",,,0,0,1,0,2,1,0,1,,0,1,0,2,0,1,1,
Shanhuasi,http://art.vanderbilt.edu/Shanhuasi_Puxiange,Shanhuasi_Puxiange,Puxiange,,1,88,41,Puxiange,,普賢閣,1154,1154,1154,40.0859333,113.293333,40˚ 05.156' N,113˚ 17.600' E,1154; column-top match ic on lower eaves,,,0,1,1,1,1,1,0,1,,0,0,0,0,0,0,1,
Shanhuasi,http://art.vanderbilt.edu/Shanhuasi_Daxiongbaodian,Shanhuasi_Daxiongbaodian,Daxiongbaodian,,1,88,41,Daxiongbaodian,,大雄寶殿,1000-1143,1000,1143,40.0862833,113.293166,40˚ 05.177 N,113˚ 17.590' E,遼; renovated (重修) during 1128-1143 reconstruction， angled bracket arme on e and w; linggong on these bevelled backwards,,,0,0,1,0,1,1,0,1,,0,0,0,0,0,1,1,
Huayansi,http://art.vanderbilt.edu/Huayansi_Xiasi_Sutra_Repository,Huayansi_Xiasi_Sutra_Repository,Xiasi_Sutra_Repository,,1,91,44,,Xiasi Sutra Repository,下寺薄伽教藏殿,1038,1038,1038,40.0905166,113.288533,40˚ 05.431' N (Garmin),113˚ 17.312' E,1038,,,0,1,0,0,1,1,0,1,,0,0,0,0,0,0,1,
Huayansi,http://art.vanderbilt.edu/Huayansi_Shangsi_Daxiongbaodian,Huayansi_Shangsi_Daxiongbaodian,Shangsi_Daxiongbaodian,,1,91,44,Shangsi Daxiongbaodian,,上寺大雄寶殿,1140,1140,1140,40.09125,113.287433,40˚ 05.475' N (Garmin),113˚ 17.246' E,1140,2009,,0,1,1,0,1,1,0,1,,0,0,0,0,0,0,1,
Jinci,http://art.vanderbilt.edu/Jinci_Shengmudian,Jinci_Shengmudian,Shengmudian,,1,85,38,Shengmudian,,聖母殿,1038-1087,1038,1087,37.708727,112.434575,37˚ 42.25' E  N (Garmin),112˚ 26.43' E,Shengmudian 1038-1087-local and trans-local types of bracketing,2006?,,0,0,0,0,1,1,0,1,1,0,1,1,1,1,0,1,
Jinci,http://art.vanderbilt.edu/Jinci_Xiandian,Jinci_Xiandian,Xiandian,,1,85,38,Xiandian,,獻殿,1168,1168,1168,37.7085556,112.435,37˚ 43.99' N (Garmin),112˚ 33.70' E,Jin 1168-local and trans-local types of bracketing,2006?,,0,0,0,0,1,1,0,1,1,0,1,1,1,1,0,1,
Anchansi,http://art.vanderbilt.edu/Anchansi,Anchansi_Cangjingdian,Cangjingdian,,6,360,63,Cangjingdian,,藏经殿,960-1125,960,1125,37.42453333,112.5473333,37˚ 25.472 (Garmin),112˚ 32.840,"sutra repository Song, compare to Jidumiao qingong",2010,ZGWWDTJ  山西 p. 762    57 – C 1  -other parts of the monastary have been destroyed,0,0,0,0,1,1,0,1,1,0,0,0,0,0,0,1,3
Zhenshengsi,http://art.vanderbilt.edu/Zhenshengsi,Zhenshengsi,,,6,388,Ⅲ－91,,,,1157,1157,1157,,,,,Main Hall from Jin; 1157. See: http://www.huaxia.com/zhsx/sxsy/wwzy/12/1260249.html,*,,,,,,,,,,,,,,,,,,
Dingxiang,http://art.vanderbilt.edu/Dingxiang_Guanwangmiao,Dingxiang_Guanwangmiao,Guanwangmiao,,6,368,Ⅲ－71,Guanwangmiao,,,1208,1208,1208,,,,,"1208 關王殿； see: 中國 文物 地圖集 山西分冊, 中, 571-572 ",*,,,,,,,,,,,,,,,,,,
Dingxiang,http://art.vanderbilt.edu/Dingxiang_Hongfusi,Dingxiang_Hongfusi,Hongfusi,,5,251,57,Hongfusi,,,1096-1125,1096,1125,38.62949167,113.0524611,"38°37'46.17""(google earth-satellite)","113°03'08.86""",stele inscription documenting repair in the Tianhui period (1123-1138) see: 中國 文物 地圖集 山西分冊，中，571,1998,,0,0,1,0,1,1,0,0,,0,0,1,1,1,1,0,
Puguangsi,http://art.vanderbilt.edu/Puguangsi,Puguangsi,,,6,358,Ⅲ－61,,,,,,,,,,,"main hall from Song, hip-gable converted to gable",*,,,,,,,,,,,,,,,,,,
Zhenguosi,http://art.vanderbilt.edu/Zhenguosi_10000_Buddhas_Hall,Zhenguosi_10000_Buddhas_Hall,10000_Buddhas_Hall,,3,111,59,,"10,000 Buddhas Hall",,963,963,963,37.25298611,112.248006,"37˚ 15' 10.75"" N (google earth-Xu, no satellite)",112˚ 14’52。82”E,continuation of style at Foguangsi into 10th cen.,1997,,0,0,0,0,1,0,1,0,1,1,0,0,2,0,0,1,
Cixiangsi,http://art.vanderbilt.edu/Cixiangsi_Main_Hall,Cixiangsi_Main_Hall,Main_Hall,,5,239,45,,Main Hall,,1125-1234,1125,1234,37.23389444,112.2438056,"37˚14' 02.02"" N (fuzzy satellite following 赝能隙 photo)","112˚ 14' 37.72""","main hall jin, pagoda Song, bad photos so data needs confirmation",1997,,0,0,0,1,1,1,0,1,,0,1,0,1,0,?,?,
Pingyao,http://art.vanderbilt.edu/Pingyao_Wenmiao,Pingyao_Wenmiao,Wenmiao,,5,240,46,Wenmiao,Dachengdian,,1163,1163,1163,37.195,112.19,37˚ 11.7' N (Magellan),112˚ 11.4' E,first step is made jixin with a cloud-shaped bracket arm,"1997, 2004",,0,0,0,0,0,1,0,1,,0,1,0,2,0,0,1,
Tiantaian,http://art.vanderbilt.edu/Tiantaian,Tiantaian,,,3,107,55,,Main Hall,,618-907,618,907,36.38344,113.3922133,"36˚ 23' 00.64"" N (google earth Cui Jinze)","113˚ 23' 53.28"" E",probably late Tang based on style,1997,,0,0,0,0,1,0,1,0,,0,0,0,0,0,0,0,
Dayunyuan,http://art.vanderbilt.edu/Dayunyuan,Dayunyuan,,,3,112,60,,Great Buddha Hall,,940,940,940,36.35619167,113.4353267,"36˚ 21' 37.15"" N ( google earth-Cui Junze, no satellite)","113˚ 26' 11.96"" E",10th cen compare to Jidumiao Qingong,1997,,0,0,0,1,1,1,1,0,,0,0,0,0,0,0,1,
Longmensi,http://art.vanderbilt.edu/Longmensi_Tianwandian,Longmensi_Tianwandian,Tianwandian,,4,92,14,Tianwandian,Tianwangdian,,1125-1234,1125,1234,36.3896666,113.622666,36˚ 23.38' N (Magellan),113˚ 37.36' E,Jin dynasty with fan brackets,1999,,0,0,1,0,1,1,0,1,1,0,1,0,1,0,1,0,
Longmensi,http://art.vanderbilt.edu/Longmensi_West_Side_Hall,Longmensi_West_Side_Hall,West_Side_Hall,,4,92,14,,West Side Hall,,925,925,925,36.387495,113.6201617,"36˚ 23' 24.97"" N (google earth-satellite)","113˚ 37' 20.97"" E ",925: earliest subsidiary building,,,0,0,0,0,0,0,1,0,,0,0,0,0,0,0,1,
Longmensi,http://art.vanderbilt.edu/Longmensi_Daxiongbaodian,Longmensi_Daxiongbaodian,Daxiongbaodian,,4,92,14,Daxiongbaodian,,,1098,1098,1098,36.38750833,113.620255,"36˚ 23' 25.05"" N (google earth-satellite)","113˚ 37'21.53 ""E",Song dynasty--eleventh century typical of Shangdang,,,0,0,0,0,0,1,0,1,1,0,0,1,1,1,1,0,
Fotousi,http://art.vanderbilt.edu/Fotousi_Main_Hall,Fotousi_Main_Hall,Main_Hall,,6,366,69,,Great Hall,,,,,36.3581667,113.5761333,36˚ 21.490' (Garmin),113˚ 34.568',"Great Hall Song-Jin structure; see: 中國文物地圖集山西分冊, 中, 305 ",2010,,0,0,1,0,1,1,0,1,1,0,1,0,2,1,1,0,
Chunhuasi,http://art.vanderbilt.edu/Chunhuasi_Main_Hall,Chunhuasi_Main_Hall,Main_Hall,,5,236,42,,Great Hall,,,,,36.3532333,113.5862,36˚ 21.194'N (Garmin),113˚ 35.172',,2010,,0,0,0,0,0,1,0,1,?,0,1,1,1,0,1,0,
Jiutian,http://art.vanderbilt.edu/Jiutian_Shengmumiao,Jiutian_Shengmumiao,Shengmumiao,,5,238,44,Shengmumiao,,,,,,36.22523333,113.3374167,36 13.514' (Garmin),113˚ 20.245',,2010,,0,0,0,1,1,1,0,1,1,0,1,0,1,0,0,1,
Huilongsi,http://art.vanderbilt.edu/Huilongsi,Huilongsi,,,6,393,96,,,,,,,,,,,Main Hall Jin; see: http://www.sxcr.gov.cn/wmsx/show.php?itemid=1100,*,,,,,,,,,,,,,,,,,,
Fogongsi,http://art.vanderbilt.edu/Fogongsi_Timber_Pagoda,Fogongsi_Timber_Pagoda,Timber_Pagoda,,1,71,24,,Timber Pagoda,,1056-1095,1056,1095,39.5650166,113.1817,39˚ 33.901' N (Garmin),113˚ 10.902 E,"northern pagodas and development of xiegong;pingzuo bracket sets jixin on first step, eaves touxin ",2009,,1,1,1,0,1,1,1,1,1,1,0,0,2,0,0,1,
Jingtusi,http://art.vanderbilt.edu/Jingtusi,Jingtusi,,,6,398,101,Daxiongbaodian,,,1184,1184,1184,39.5665166,113.1876,39˚ 33.997' N (Garmin),113˚ 11.256˚ E,,2009,,0,0,0,1,2,1,0,1,,0,1,0,1,0,0,1,
Jindongsi,http://art.vanderbilt.edu/Jindongsi,Jindongsi,,,6,359,62,,,轉角殿,960-1125,960,1125,,,,,,1999,,0,0,0,0,0,1,1,0,？,1,0,0,1,1,0,1,
Zetianmiao,http://art.vanderbilt.edu/Zetianmiao,Zetianmiao,,,4,100,22,,,,1125-1234,1125,1234,37.47303833,112.0361283,"37°28'38.23""(google earth-satellite， zetsubouphoto","112°02'16.77""",,1999,,0,0,0,0,0,1,1,1,？,0,0,1,1,1,0,1,
Baitaisi,http://art.vanderbilt.edu/Baitaisi_Shijiadian,Baitaisi_Shijiadian,Shijiadian,,6,372,75,Shijiadian,"Gujiaozhen, Guangmacun",释迦殿,1190-1196,1190,1196,35.66366667,111.0694,35˚ 39.820' (garmin),111˚ 4.164',"Shijiadian from Jin Mingchang period (1190-1196) see: 中國 文物 地圖集山西分冊, 下, 1099 ",*2010,"Axis: c, roof style: h/g, front façade: 31' 3"",3 bays, side: 31' 4"" 3 bays",0,0,0,0,1,1,0,1,1,0,1,0,1,0,0,1,
Baitaisi,,Baitaisi_Sandi_facangdian,Sandi_facangdian,,,,,Sandi facangdian,,三滴法藏阁,1279-1368,1279,1368,35.66345,111.0694,35° 39.807' (±17ft),111° 4.164',,2010,"Axis: c, roof style: o-g, front façade: 36' 5""",,,,,,,,,,,,,,,,,
Baitaisi,,Baitaisi_Houdadian,Houdadian,,,,,Houdadian,,后大殿,1279-1368,1279,1368,35.663933,111.06937,35° 39.836' (±17ft),111° 4.162' (±17ft),,2010,"Axis: c, roof style: o-g, front façade: 60', side: 25' 9""",,,,,,,,,,,,,,,,,
Qingliansi,http://art.vanderbilt.edu/Qingliansi_Main_Hall,Qingliansi_Main_Hall,Main_Hall,,3,110,58,,Main Hall Song,,1089,1089,1089,35.45525666,112.98687,"35˚ 27' 31.54"" N (google earth-satellite)","112˚ 59' 21.22"" E",a regional style in the 11th century,1997,,0,0,0,0,0,1,0,1,1,0,0,1,1,1,0,1,
Qingliansi,http://art.vanderbilt.edu/Qingliansi_Sutra_Repository,Qingliansi_Sutra_Repository,Sutra_Repository,,3,110,58,,Sutra Repository Song w/ Qing modification,,1089-1911?,1089,1911,35.45511,112.9869033,"35˚ 27' 30.66"" N (google earth-satellite)","112˚ 59' 21.42"" E ",lower story first step jixin--part of later modification?,,,0,0,0,0,1,1,1,1,?,0,0,?,1,0,,,
Yuhuangmiao,http://art.vanderbilt.edu/Yuhuangmiao_Back_Hall,Yuhuangmiao_Back_Hall,Back_Hall,,3,113,61,,Back Hall,,1076,1076,1076,35.54693333,112.93665,35˚ 32' 34.51 N (google earth),"112˚ 56' 32.81"" E","back hall late 11th century, bracketing style similar to SMD",,,0,0,0,0,1,1,0,1,,,,,,,,,
Jincheng,http://art.vanderbilt.edu/Jincheng_Erxianmiao,Jincheng_Erxianmiao,Erxianmiao,,4,97,19,Erxianmiao,Main Hall,,1107-1117,1107,1117,35.496,112.9725,35˚ 29.76' N (Magellan),112˚ 58.35' E,"touxin on corner, jixin on frt facade",2004,,0,0,0,0,0,1,1,1,1,0,1,0,1,1,1,0,
Dabeiyuan,http://art.vanderbilt.edu/Dabeiyuan_Guodian,Dabeiyuan_Guodian,Guodian,,5,242,48,Guodian,,,1180,1180,1180,35.73436667,111.5450667,35˚ 44.602 (Garmin),111˚ 32.704,,2010,,,,,,,,,,,,,,,,,,
Chongfusi,http://art.vanderbilt.edu/Chongfusi_Mituodian,Chongfusi_Mituodian,Mituodian,,3,117,65,Mituodian,Amitabha Hall from 1143; Guanyin Hall likely from same time,,1143,1143,1143,39.31522222,112.432347,"39˚ 18' 54.80"" N (google earth-fuzzy satellite)","112˚ 25' 56.45"" E",celebration of angled bracket arm variety; angled bracket arm in back central bay,1998,,1,1,0,1,1,1,0,1,1,0,0,1,2,1,1,0,
Chongfusi,http://art.vanderbilt.edu/Chongfusi_Guanyindian,Chongfusi_Guanyindian,Guanyindian,,3,117,65,Guanyindian,Amitabha Hall from 1143; Guanyin Hall likely from same time,,1143,1143,1143,39.31522222,112.432347,"39˚ 18' 54.80"" N (google earth-fuzzy satellite)","112˚ 25' 56.45"" E",celebration of angled bracket arm variety,1998,GIS for site only,0,0,0,0,2,1,0,1,1,0,0,1,1,1,0,1,
Fuyangsi,http://art.vanderbilt.edu/Fuyangsi,Fuyangsi,,,6,385,88,,,,,,,,,,,"Daxiongbaodian Jin: see 中國 文物 地圖集 下, 718.",*,,,,,,,,,,,,,,,,,,
Hongjiyuan,http://art.vanderbilt.edu/Hongjiyuan,Hongjiyuan,,,5,252,58,,Main Hall (Jin),,1115-1234,1115,1234,36.9830166,112.66555,36˚ 58.981 N (Garmin),112˚ 39.933 E,,2009,,0,0,0,1,1,1,0,1,1,0,1,0,1,0,0,1,
Wuxiang,http://art.vanderbilt.edu/Wuxiang_Dayunsi_Sanfodian,Wuxiang_Dayunsi_Sanfodian,Dayunsi_Sanfodian,,5,253,59,Dayunsi Sanfodian,Three Buddha,三佛殿,960-1125,960,1125,36.9410666,112.6609,36˚ 56.493 N (Garmin),112˚ 39.657 E,,2009,,0,0,0,0,0,1,0,1,1,0,1,,0,,0,1,
Huixianguan,http://art.vanderbilt.edu/Huixianguan,Huixianguan,,,5,254,60,Sanqingdian,,三清殿,1115-1234,1115,1234,36.7518166,113.038883,36˚ 45.109' N (Garmin),113˚ 02.333 E,column top xiaang in central bay--seems later than Jin?,2009,,1,0,0,0,0,1,0,1,,0,1,,2,,1,0,
Taifuguan,http://art.vanderbilt.edu/Taifuguan,Taifuguan,,,5,243,49,,Main Hall,,1115-1234,1115,1234,37.3446111,111.9174667,"37˚ 20' 40.60"" N (google earth-satellite)","111˚ 55' 02.88"" E",,1998,,0,0,0,0,1,1,0,1,？,0,0,0,0,0,1,0,
Puzhaosi,http://art.vanderbilt.edu/Puzhaosi_Dadian,Puzhaosi_Dadian,Dadian,,6,394,97,Dadian,Great Hall Jin dynasty,,1115-1234,1115,1234,36.7457833,112.653316,36˚ 44.747 N (Garmin)36˚ 44.747 N (Garmin),112˚ 39.199 E,,2009,,0,0,1,0,1,0,0,1,1,0,1,0,1,1,1,1,
Qinxian,http://art.vanderbilt.edu/Qinxian_Dayunyuan,Qinxian_Dayunyuan,Dayunyuan,,5,244,50,Dayunyuan,Main Hall,,1115-1234,1115,1234,36.7477,112.5745,36˚ 44.862' N (Garmin),112˚ 34.478' E,,2009,,0,0,0,0,0,1,0,1,1,0,0,0,0,0,1,0,
Beiyicheng,http://art.vanderbilt.edu/Beiyicheng_Yuhuangmiao_Main_Hall,Beiyicheng_Yuhuangmiao_Main_Hall,Yuhuangmiao_Main_Hall,,6,363,66,Yuhuangmiao,Main Hall,,1110,1110,1110,38.488,112.948133,35˚ 38.488 N (Garmin),112˚ 56.888 E,,2009,,,,,,,,,,,,,,,,,,
Zhoucun,http://art.vanderbilt.edu/Zhoucun_Dongyuemiao_Main_Hall,Zhoucun_Dongyuemiao_Main_Hall,Dongyuemiao_Main_Hall,,6,364,67,Dongyuemiao,Main Hall,,,,,35.47615,112.620216,35˚ 28.569 N (Garmin),112˚ 37.213 E,,2009,,0,0,0,0,0,1,0,1,?,0,1,0,1,0,1,0,
Zhoucun,http://art.vanderbilt.edu/Zhoucun_Dongyuemiao_East_Hall,Zhoucun_Dongyuemiao_East_Hall,Dongyuemiao_East_Hall,,6,364,67,Dongyuemiao,East Hall,,,,,35.4762,112.6204833,35˚ 28.572 N (Garmin),112˚ 37.229 E,ang and ang-shaped shuatou are only on corners,,,0,0,0,0,0,1,0,1,,0,1,0,1,1,1,0,
Zezhou,http://art.vanderbilt.edu/Zezhou_Daimiao_Tianqidian,Zezhou_Daimiao_Tianqidian,Daimiao_Tianqidian,,5,263,69,Daimiao Tianqidian,,天齐殿,1079,1079,1079,35.41921667,112.7244167,35˚ 25.153' (Garmin),112˚ 43.465',,2010,,0,0,0,1,1,1,0,1,1,0,1,0,2,0,0,1,
Jingzhuang,http://art.vanderbilt.edu/Jingzhuang_Dayunsi_Daxiongbaodian,Jingzhuang_Dayunsi_Daxiongbaodian,Dayunsi_Daxiongbaodian,,5,230,36,Dayunsi Daxiongbaodian,,,,,,,,,,,*,,,,,,,,,,,,,,,,,,
Hutumiao,http://art.vanderbilt.edu/Hutumiao,Hutumiao,,,6,362,65,,,,,,,,,,,really song?,1999,,,,,,,,,,,,,,,,,,
Dongyi,http://art.vanderbilt.edu/Dongyi_Longwangmiao,Dongyi_Longwangmiao,Longwangmiao,,6,378,81,Longwangmiao,,大殿,1125-1234,1125,1234,36.29381667,113.25975,36˚17.629 (Garmin),113˚ 15.585',"Main Hall Jin, see 中國 文物 地圖集 山西分冊, 中, 240",*,,0,0,1,0,1,1,0,1,1,0,1,0,2,1,1,0,
Yuanqisi,http://art.vanderbilt.edu/Yuanqisi,Yuanqisi,,,5,276,82,,,,960-1125,960,1125,36.35326667,113.4258,36˚ 21.196' (Garmin),113˚ 25.548',,2010,,0,0,0,0,0,0,1,0,?,0,0,0,0,1,0,0,
Xingdongyuan,http://art.vanderbilt.edu/Xingdongyuan_Dongyuemiao,Xingdongyuan_Dongyuemiao,Dongyuemiao,,5,241,47,Dongyuemiao,,,,,,,,,,,*,,,,,,,,,,,,,,, ,,,
Guangfansi,http://art.vanderbilt.edu/Guangfansi,Guangfansi,,,6,367,Ⅲ－70,,,,960-1125,960,1125,37.39033333,112.4500667,,,"Main Hall Song structure; see: 中國文物地圖集山西分冊, 下, 775 ",*,,,,,,,,,,,,,,,,,,
Yanshansi,http://art.vanderbilt.edu/Yanshansi,Yanshansi,,,2,23,8,,,文殊殿 also 南殿,1158,1158,1158,39.22918056,113.6534333,"39˚ 13’ 45.05"" N (google earth)","113˚ 39' 12.36"" E","1158 simple building,single xia'ang, ct and ic the same ",1999,,0,0,0,1,1,1,0,1,1,0,1,0,1,0,1,0,
Taiyinsi,http://art.vanderbilt.edu/Taiyinsi_Daxiongbaodian,Taiyinsi_Daxiongbaodian,Daxiongbaodian,,5,260,66,Daxiongbaodian,,,1170,1170,1170,35.49343333,111.6487167,35˚ 29.606' (Garmin),111˚ 38.923',"Daxiongbaodian from Jin repair, see: 中國 文物 地圖集 山西分冊,下,p.1148",2010,,0,0,0,1,1,1,0,1,1,1,0,1,2,0,0,1,
Guangrenwangmiao,http://art.vanderbilt.edu/Guangrenwangmiao,Guangrenwangmiao,,,5,248,54,,,,831,831,831,34.73344722,110.677217,"34˚ 44’ 00.41"" N (google earth)","110˚ 40' 37.98"" E",identified with Cui Jinze photo,1997,,0,0,0,0,0,0,1,0,?,0,0,0,0,0,0,1,
Ruicheng,http://art.vanderbilt.edu/Ruicheng_Chenghuangmiao,Ruicheng_Chenghuangmiao,Chenghuangmiao,,5,249,55,Chenghuangmiao ?????,,,,,,,,,,大殿面宽五间，进深三间，单檐歇山顶。前檐柱头斗栱五铺作，双下昂，昂为劈竹式，蚂蚱形耍头,*,,,,,,,,,,,,,,,,,,
Zhaozewangmiao,http://art.vanderbilt.edu/Zhaozewangmiao,Zhaozewangmiao,,,6,395,98,,,,,,,,,could not find,,Main Hall from 1187; see: http://www.sxcr.gov.cn/wmsx/show.php?itemid=1128,*,,,,,,,,,,,,,,,,,,
Fencheng,http://art.vanderbilt.edu/Fencheng_Gujianzhu,Fencheng_Gujianzhu,Gujianzhu,,6,384,87,Gujianzhu,,,,,,,,,,"not listed separately in 中國 文物 地圖集, unknown which building is Jin",n/a?,,,,,,,,,,,,,,,,,,
Lingzewangmiao,http://art.vanderbilt.edu/Lingzewangmiao_or_Taiping_Longwangmiao,Lingzewangmiao_or_Taiping_Longwangmiao,or_Taiping_Longwangmiao,,6,373,76,Taiping Longwangmiao,,,,,,,,could not find,,"Also called: 太平龍王廟 Main Hall from 1210; see: 中國 文物 地圖集 山西分冊, 中,278",*,,,,,,,,,,,,,,,,,,
Faxingsi,http://art.vanderbilt.edu/Faxingsi_Main_Hall,Faxingsi_Main_Hall,Main_Hall,,3,106,54,,Main Hall,,1100-1125,1100,1125,35.98437778,112.9065806,"35˚ 59' 03.76"" N (google earth-satellite confirmation)","112˚ 54' 23.69"" E",song elements rebuilt--exclude?,1997?,,0,x,0,0,0,1,1,0,x,0,0,1,2,0,0,1,
Chongqingsi,http://art.vanderbilt.edu/Chongqingsi_1000_Buddha_Hall,Chongqingsi_1000_Buddha_Hall,1000_Buddha_Hall,,4,98,20,,l000 Buddhas Hall,,1016,1016,1016,35.98058333,112.9598,35˚58'.835 N (Garmin),"112˚ 57.588"" E ",,"1998, 2010",,0,0,0,0,0,?,1,0,1,0,0,1,1,0,1,0,
Chongqingsi,http://art.vanderbilt.edu/Chongqingsi_Sandashi_Hall,Chongqingsi_Sandashi_Hall,Sandashi_Hall,,,,,,Sandashi Hall,,1079,1079,1079,35.98063333,112.9596333,,,,,,0,0,0,0,0,?,?,?,1,0,1,0,1,0,1,0,
Tianwangsi,http://art.vanderbilt.edu/Tianwangsi_Middle_Hall,Tianwangsi_Middle_Hall,Middle_Hall,,6,396,99,,Middle Hall,,1125-1234,1125,1234,36.11731667,112.8746333,36˚ 7.039' (Garmin),112˚ 52.478',Middle and Back Halls Jin: 现仅存中殿、后殿，有关专家从梁架结构和斗拱构件认证属金代建筑遗存,2010,,0,0,0,0,0,1,0,1,?,?,?,?,1,0,1,0,
Tianwangsi,http://art.vanderbilt.edu/Tianwangsi_Back_Hall,Tianwangsi_Back_Hall,Back_Hall,,6,396,99,,Back Hall,,1125-1234,1125,1234,36.11753333,112.8747333,36˚ 7.052' (Garmin),112˚ 52.484',Middle and Back Halls Jin: 现仅存中殿、后殿，有关专家从梁架结构和斗拱构件认证属金代建筑遗存,2010,,http://www.sxcr.gov.cn/wmsx/show.php?itemid=1124,,,,,,,,,,,,,,,,
Zhengjuesi,http://art.vanderbilt.edu/Zhengjuesi,Zhengjuesi,,,5,228,34,,,,,,,,,,,,1997,,0,0,0,0,0,1,0,1,?,0,1,0,1,1,0,1,
Xiajiao,http://art.vanderbilt.edu/Xiajiao_Tangdimiao_Offering_Hall,Xiajiao_Tangdimiao_Offering_Hall,Tangdimiao_Offering_Hall,,6,357,60,Tangdimiao,"Offering Hall, Stage Jin ",,1213,1213,1213,35.41436667,112.3568333,35˚ 24.862,112˚ 21.410,offering hall originally a stage from Jin dynasty,2010,,,0,1,0,1,1?,0,1,1,0,1,0,1,1,1,0,
Kaifusi,http://art.vanderbilt.edu/Kaifusi_Offering_Hall,Kaifusi_Offering_Hall,Offering_Hall,,6,371,74,,Offering Hall,,1161-1190,1161,1190,35.4803,112.4226,35˚ 28.818' (Garmin),112˚ 25.356',"Offering Hall is Jin Dading period (1161-1190) see: 中國 文物 地圖集 山西分冊, 中, 500 ",*,,0,0,0,1,1,1,0,1,1,0,1,0,1,1,1,0,
Runcheng,http://art.vanderbilt.edu/Runcheng_Dongyuemiao_or_Tuncheng_Dongyuemiao,Runcheng_Dongyuemiao_or_Tuncheng_Dongyuemiao,Dongyuemiao_or_Tuncheng_Dongyuemiao,,6,375,78,Dongyuemiao or Tuncheng Dongyuemiao,Tianjidian,,1199-1208,1199,1208,35.55121667,112.5350833,35˚ 33.084' (Garmin),112˚ 32.111',"天齊殿from Jin 1199-1208, see: 中國 文物 地圖集 山西分冊, 中, 500/天齊殿from Jin 1199-1208, see: 中國 文物 地圖集 山西分冊, 中, 500/天齊殿from Jin 1199-1208, see: 中國 文物 地圖集 山西分冊, 中, 500/天齊殿from Jin 1199-1208, see: 中國 文物 地圖集 山西分冊, 中, 500/",*,,0,0,0,0,0,1,0,1,1,0,1,0,3,1,1,0,
Buersi,http://art.vanderbilt.edu/Buersi,Buersi,,,6,397,100,,Main Hall: Moved from original location,,,,,38.0510217,112.6602917,"38˚ 03' 06.13"" N (google earth-satellite confirm)","112˚ 39' 37.05"" E",,1998,,0,0,0,1,1,1,0,1,1,0,1,0,1,0,0,1,
Guanwangmiao,http://art.vanderbilt.edu/Guanwangmiao,Guanwangmiao,,,4,99,21,,,,,,,37.92066667,113.6196667,37˚ 55.24' N (Magellan-could not verify w/ satellite),113˚ 37.18 E,"only angled bracket arms are bevelled, not linggong",2001,,1,0,1,0,1,1,0,1,?,0,0,0,0,0,0,1,
Yuquan,http://art.vanderbilt.edu/Yuquan_Dongyuemiao,Yuquan_Dongyuemiao,Dongyuemiao,,6,376,79,Dongyuemiao,,,1125-1234,1125,1234,35.68258333,113.19005,35˚ 40.955 (Garmin),113˚ 11.403,"Main Hall and East Ear hall (耳殿) Jin, see 中國 文物 地圖集 山西分冊, 中, 513",2010,"complex locked, measured back of hall",0,0,0,0,0,0,0,1,1,0,1,0,1,1,0,1,
Shizhang,http://art.vanderbilt.edu/Shizhang_Yuhuangmiao,Shizhang_Yuhuangmiao,Yuhuangmiao,,6,377,80,Yuhuangmiao,,,1125-1234,1125,1234,35.7257,113.33805,35˚ 43.542' (Garmin),113˚ 20.288',"Main Hall Jin, see 中國 文物 地圖集 山西分冊, 中, 513-514",*,,0,0,1,1,1,1,0,1,1,0,1,0,1,0,1,0,
Baiyugong,http://art.vanderbilt.edu/Baiyugong,Baiyugong,,,6,386,89,,,,1212,1212,1212,35.65815,113.2410667,35˚ 39.489',113˚ 14.464',"Main Hall from 1212 see: 中國 文物 地圖集, 中, 513",2010,,0,0,0,1,1,1,0,1,1,0,1,0,1,1,1,0,
Longyansi,http://art.vanderbilt.edu/Longyansi,Longyansi,,,5,229,35,,,,,,,,,,,,*,,,,,,,,,,,,,,,,,,
Xiaohuiling,http://art.vanderbilt.edu/Xiaohuiling_Erxianmiao,Xiaohuiling_Erxianmiao,Erxianmiao,,5,265,71,Erxianmiao,,,960-1125,960,1125,35.67861667,113.1687333,35˚ 40.717' N (Garmin),113˚ 10.124' E,,2010,,0,0,1,0,1,1,1,0,1,0,0,1,1,1,1,0,
Lingchuan,http://art.vanderbilt.edu/Lingchuan_Cuifujunmiao,Lingchuan_Cuifujunmiao,Cuifujunmiao,,5,266,72,Cuifujunmiao,Shanmen Jin,,1125-1234,1125,1234,35.79946667,113.1166,35˚ 47.968 N,113˚ 06.996 E,,2009,,0,0,0,0,0,1,1,0,1,0,0,1,1,1,1,0,
Xixi,http://art.vanderbilt.edu/Xixi_Erxianmiao,Xixi_Erxianmiao,Erxianmiao,,5,267,73,Erxianmiao,Back Hall Jin,,,,,35.7605,113.2553333,35˚ 45.63 N,113˚ 15.32 E,,2004,,0,0,0,1,2,1,0,1,1,0,1,0,2,0,0,1,
Sirun,http://art.vanderbilt.edu/Sirun_Sanjiaotang,Sirun_Sanjiaotang,Sanjiaotang,,6,391,94,Sanjiaotang,Main Hall,,1125-1234,1125,1234,35.83021667,113.18035,35˚ 49.813',113˚ 10.821,"Main Hall Jin, see: http://www.sxcr.gov.cn/wmsx/show.php?itemid=1007",2010,,0,0,0,1,1,1,0,1,1,0,1,0,1,1,1,0,
Nanshentou,http://art.vanderbilt.edu/Nanshentou_Erxianmiao,Nanshentou_Erxianmiao,Erxianmiao,,6,390,93,Erxianmiao,Main Hall,,960-1125,960,1125,35.69555,113.35965,35˚ 41.733',113˚ 21.579',Main Hall from Jin; see: http://www.huaxia.com/zhsx/sxsy/wwzy/12/1256259.html,2010,,0,0,1,1,1,1,0,1,1,0,1,0,1,1,1,0,
Nanjixiangsi,http://art.vanderbilt.edu/Nanjixiangsi_Middle_Hall,Nanjixiangsi_Middle_Hall,Middle_Hall,,,,,,Middle Hall,,1030,1030,1030,35.77675,113.12075,35˚ 46' 33.36' N  (google earth-fuzzy satellite),"113˚ 7' 15.40"" E",,1998,,0,0,1,0,1,1,1,0,1,1,0,0,1,1,1,0,
Beijixiangsi,http://art.vanderbilt.edu/Beijixiangsi_Tianwangdian,Beijixiangsi_Tianwangdian,Tianwangdian,,4,101,23,Tianwangdian,Front Hall,,960-1125,960,1125,35.79754167,113.1118472,"35˚ 47' 50.68"" N (google earth-Cui Jinze and fuzzy sat.)","113˚ 06' 42.50"" E",could these xiaang have been recarved?,1998,,0,0,0,0,0,1,0,1,1,0,1,0,1,1,1,0,
Beijinxiangsi,http://art.vanderbilt.edu/Beijinxiangsi_Middle_Hall,Beijinxiangsi_Middle_Hall,Middle_Hall,,4,101,23,,Middle Hall,,960-1125,960,1125,35.79782778,113.1118667,"35˚ 47' 51.88"" N (google earth-Cui Jinze and fuzzy sat.)","113˚ 06' 42.67"" E",nidaogong chamfered--did not include,,,0,0,0,0,0,1,0,1,1,0,1,0,2,0,1,0,
Yangquan,http://art.vanderbilt.edu/Yangquan_Dawangmiao,Yangquan_Dawangmiao,Dawangmiao,,5,255,61,Dawangmiao,,,,,,,,,,寢宮from Jin--1172? Ic brackets have xiegong,*,,,,,,,,,,,,,,,,,,
Youxiansi,http://art.vanderbilt.edu/Youxiansi_Front_Hall,Youxiansi_Front_Hall,Front_Hall,,5,270,76,,Front Hall/Middle Hall Jin,,990-994,990,994,35.74008889,112.929389,"35˚ 44' 25.08"" N (google earth-satellite confirm)","112˚ 55' 45.86"" E",,,,0,0,0,0,1,1,1,0,1,0,0,1,1,1,1,0,
Youxiansi,http://art.vanderbilt.edu/Youxiansi_Middle_Hall,Youxiansi_Middle_Hall,Middle_Hall,,5,270,76,,Middle Hall/Back Hall Jin/Yuan,,1125-1234,1125,1234,35.74030278,112.9294028,"35˚ 44' 25.96"" N (google earth-satellite confirm)","112˚ 55' 45.98"" E",linggong beveled mangong chamfered,,,0,0,0,1,1,1,0,1,？,0,1,0,1,0,1,1,
Xilimen,http://art.vanderbilt.edu/Xilimen_Erxianmiao_Middle_Hall,Xilimen_Erxianmiao_Middle_Hall,Erxianmiao_Middle_Hall,,6,374,77,Erxianmiao,Middle Hall Jin (1157),,1157,1157,1157,35.7030833,112.9776,35˚ 42.185' N (Garmin),112˚ 58.656' E,,2009,,0,0,0,0,1,1,0,1,1,0,1,0,2,0,0,1,
Xilimen,http://art.vanderbilt.edu/Xilimen_Erxianmiao_Back_Hall,Xilimen_Erxianmiao_Back_Hall,Erxianmiao_Back_Hall,,6,374,77,Erxianmiao,Back Hall Jin with extensive repairs,,1125-1234,1125,1234,35.7032333,112.977666,35˚ 42.194' N (Garmin),112˚ 58.660' E,,2009,,0,0,0,0,1,1,0,1,?,0,1,0,1,0,0,1,
Zhongping,http://art.vanderbilt.edu/Zhongping_Erxiangong_Shanmen,Zhongping_Erxiangong_Shanmen,Erxiangong_Shanmen,,6,382,85,Erxiangong Shanmen,Shanmen (Jin dynasty),,1125-1234,1125,1234,35.8059,113.07,35˚ 48.354 N (Garmin),113˚ 04.200' E,this building looks later--yuan?,2009,,0,0,0,0,1,1,0,1,?,0,1,0,2,0,1,0,
Zhongping,http://art.vanderbilt.edu/Zhongping_Erxiangong_Main_Hall,Zhongping_Erxiangong_Main_Hall,Erxiangong_Main_Hall,,,,,Erxiangong Shanmen,Main Hall-Jin with Yuan repairs,,1125-1234,1125,1234,35.8061166,113.069833,35˚ 48.367 N (Garmin),113˚ 04.190' E,,,,0,0,0,0,1,1,0,1,1,0,1,0,1,0,0,1,
Erlangmiao,http://art.vanderbilt.edu/Erlangmiao,Erlangmiao,,,6,387,90,,Stage Jin dynasty,,1125-1234,1125,1234,35.86535,112.8704,35˚ 51.921 N (Garmin),112˚ l51.224 E,earliest stage,2009,,0,0,0,0,2,?,0,1,0,0,1,0,1,1,0,?,
Chongmingsi,http://art.vanderbilt.edu/Chongmingsi_Middle_Hall,Chongmingsi_Middle_Hall,Middle_Hall,,5,268,74,,Middle Hall 10th century,,,,,35.71439722,113.0084611,"35˚ 42' 51.83"" N (google earth-satellite confirm)","113' 00' 30.46"" E",,1998,,0,0,0,0,1,0,1,0,?,1,0,0,2,0,0,1,
Kaihuasi,http://art.vanderbilt.edu/Kaihuasi,Kaihuasi,,,5,269,75,Daxiongbaodian,,,,,,35.87018611,113.0370944,"35˚ 52' 12.67"" N (google earth-satellite confirm)","113˚ 02' 13.54"" E",,1997,,0,0,0,0,0,1,0,1,?,0,0,1,1,1,1,0,
Meian,http://art.vanderbilt.edu/Meian,Meian,,,4,109,31,,,,996,996,996,,,,,"Zushidian thought to retain Song style (ZGMSCD, 842)",*,,,,,,,,,,,,,,,,,,
Nantong,http://art.vanderbilt.edu/Nantong_Tianningsi,Nantong_Tianningsi,Tianningsi,,6,510,Ⅲ－213,Tianningsi,,,,,,,,,,Song-Yuan style; see: ZGMSCD 320,n/a?,,,,,,,,,,,,,,,,,,
Suzhou,http://art.vanderbilt.edu/Suzhou_Xuanmiaoguan_Sanqingdian,Suzhou_Xuanmiaoguan_Sanqingdian,Xuanmiaoguan_Sanqingdian,,2,22,7,Xuanmiaoguan Sanqingdian,,三清殿,1179,1179,1179,31.31431667,120.6216666,31˚ 18.895' N (Garmin),120˚ 37.307' E,large-scale Song building,2009,for date see: zgmscd 489,0,0,0,1,2?,?,1,0,?,0,1,0,2,0,0,1,
Yuanzhou,http://art.vanderbilt.edu/Yuanzhou_Qiaolou,Yuanzhou_Qiaolou,Qiaolou,,6,606,309,Qiaolou,,,,,,,,,,earliest observatory; see: http://big5.china.com.cn/overseas/txt/2004-12/09/content_5724640.htm,n/a,,,,,,,,,,,,,,,,,,
Kaiyuansi,http://art.vanderbilt.edu/Kaiyuansi_Zhonglou,Kaiyuansi_Zhonglou,Zhonglou,,3,105,53,Zhonglou,Bell Tower,,898,898,898,,,38˚ 08.39' N (Magellan),114˚ 33.94' E,tang first floor--compare to Wenmiao?,1999,for date see: zgmscd 104,n/a, , , , , , , , , , , , , , , ,
Zhengding,http://art.vanderbilt.edu/Zhengding_Wenmiao_Dachengdian,Zhengding_Wenmiao_Dachengdian,Wenmiao_Dachengdian,,4,91,13,Wenmiao Dachengdian,,,907-960,907,960,38.14383333,114.561,38˚ 08.63' N (Magellan),114˚ 33.66' E,,1999,,0,0,0,0,0,0,1,0,?,0,0,0,0,0,0,?,
Longxingsi,http://art.vanderbilt.edu/Longxingsi_Tianwangdian,Longxingsi_Tianwangdian,Tianwangdian,,1,89,42,Tianwangdian,,天王殿,982,982,982,38.14109167,114.5763528,38˚ 08' 27.97' N (google earth 9/2009),"114˚ 34' 34.88"" E",late 10th century (982?); modified in 1780. Early mojiao gong similar to Dulesi,1999?,zgmscd 105-106,1,0,0,0,0,0,1,0,1,0,0,0,0,0,1,0,
Longxingsi,http://art.vanderbilt.edu/Longxingsi_Monidian,Longxingsi_Monidian,Monidian,,1,89,42,Monidian,,摩尼殿,1052,1052,1052,38.14256944,114.5762444,"38˚ 08' 33.25"" N (google earth 9/2009)","114˚ 34' 34.48"" E",1052 with angled bracket arms; qinmian ang appears to be recarved,,,1,1,1,0,1,1,1,1,1,0,1,1,1,1,1,1,
Longxingsi,http://art.vanderbilt.edu/Longxingsi_Revolving_Sutra_Repository,Longxingsi_Revolving_Sutra_Repository,Revolving_Sutra_Repository,,1,89,42,,Revolving Sutra Repository,轉論藏閣,1050-1100,1050,1100,38.14345556,114.5761833,"38˚ 08' 36.44"" N (google earth 9/2009)","114˚ 34' 34.26"" E",upper eaves bracket sets;,,2nd half of 11th century; see Qi Yingtao,0,0,0,1?,2,1,0,1,1,0,0,1,1,1,0,1,
Longxingsi,http://art.vanderbilt.edu/Longxingsi_Maitreya_Pavilion,Longxingsi_Maitreya_Pavilion,Maitreya_Pavilion,,1,89,42,,Maitreya Pavilion,慈氏閣,1050-1100,1050,1100,38.14363611,114.5765111,"38˚ 08' 37.09"" N (google earth 9/2009)","144˚ 34' 35.47"" E",upper eaves bracket sets,,2nd half of 11th century; see Qi Yingtao,0,0,0,1?,2,1,0,1,?,0,0,1,2,0,0,1,
Geyuansi,http://art.vanderbilt.edu/Geyuansi,Geyuansi,,,4,95,17,,,文殊殿,977,977,977,39.353,114.681833,39˚ 21.18' N (Magellan),114˚ 40.91' E,Liao building with mojiaogong but no fan brackets; cloud bracket arms make it jixin,1999,,0,1,0,0,?,1,0,1,1,0,0,0,0,0,0,1,
Dulesi,http://art.vanderbilt.edu/Dulesi_Shanmen,Dulesi_Shanmen,Shanmen,,1,84,37,Shanmen,,觀音閣,984,984,984,40.0438,117.3966833,40˚ 02.645' N (Garmin),117˚ 23.800' N,984,2008,,0,1,0,0,1,0,1,0,1,0,0,0,0,0,0,1,
Dulesi,http://art.vanderbilt.edu/Dulesi_Guanyinge,Dulesi_Guanyinge,Guanyinge,,1,84,37,Guanyinge,,山門,984,984,984,40.04408333,117.3966666,40˚ 02.628' N (Garmin),117˚ 23.801' E,984,2008,,0,1,0,0,1,0,1,0,1,1,0,0,2,0,0,1,
Chengtangmiao,http://art.vanderbilt.edu/Chengtangmiao_Shanmen,Chengtangmiao_Shanmen,Shanmen,,6,327,30,Shanmen,,,,,,,,,,http://www.gutrip.com/html/yuyin/hebei/handan/2009/0313/3901.html,*,,,,,,,,,,,,,,,,,,
Kaishansi,http://art.vanderbilt.edu/Kaishansi_Main_Hall,Kaishansi_Main_Hall,Main_Hall,,4,96,18,,Main Hall,,,,,39.2470666,115.9872,39˚ 14.824' N (Garmin),115˚ 59.232' E,"Liao building with mojiaogong, again no fan brackets",2009,,0,1,0,0,0,1,0,1,1,0,0,0,0,0,0,1,
Liangcheng,http://art.vanderbilt.edu/Liangcheng_guli,Liangcheng_guli,guli,,6,627,330,guli,,,,,,,,,,first built in 1131?; rebuilt in the Yuan; expanded in the Ming,n/a,,,,,,,,,,,,,,,,,,
Jidumiao,http://art.vanderbilt.edu/Jidumiao_Qingong,Jidumiao_Qingong,Qingong,,4,107,29,Qingong,,寢宮,960-1000,960,1000,35.1095333,112.576583,35˚ 06.572' N (Garmin),112˚ 34.595' E,qinmian style youang,2009,,0,0,0,1,1,1,1,0,1,0,?,0,0,0,0,1,
Shaolinsi,http://art.vanderbilt.edu/Shaolinsi_Chuzuan,Shaolinsi_Chuzuan,Chuzuan,,4,89,11,Chuzuan,,,1125,1125,1125,34.50950278,112.9291167,"34˚ 30'34.21"" (google earth 7/5/2010)","112˚ 55' 44.82""","1125-contrast with Fengxianguan in Jiyuan, Henan as representing YZFS",1998?,,0,0,0,1,2,0,0,1,1,0,1,0,1,0,0,1,
Baoguosi,http://art.vanderbilt.edu/Baoguosi,Baoguosi,,,1,90,43,???,,大雄寶殿,1013,1013,1013,29.983,121.516833,29˚ 58.98' N  (Magellan),"121˚ 31.01' E (Magellan) 121˚ 30' 57.99"" E (google earth)",early 11th cen. Example of style in YZFS,1999,,0,0,0,1,2,0,1,0,1,0,1,0,2,0,0,1,
Zhangye,http://art.vanderbilt.edu/Zhangye_Dafosi,Zhangye_Dafosi,Dafosi,,4,112,34,Dafosi,,,,,,,,,,,*?,,,,,,,,,,,,,,,,,,
Hualinsi,http://art.vanderbilt.edu/Hualinsi_Dadian,Hualinsi_Dadian,Dadian,,2,19,4,Dadian,Main Hall,,964,964,964,26.103525,119.291925,"26˚ 06' 12.69"" N (google earth 9/2009)","119˚ 17' 30.93"" E ","rebuilt in new location, but has Dafoyang elements from 10th century",2004,for date see: zgmscd 471,0,0,0,1,2,0,1,0,1,0,0,0,3,1,0,1,
Putian,http://art.vanderbilt.edu/Putian_Yuanmiaoguan_Sanqingdian,Putian_Yuanmiaoguan_Sanqingdian,Yuanmiaoguan_Sanqingdian,,4,103,25,Yuanmiaoguan Sanqingdian,,,1015,1015,1015,25.4333333,119.018666,"25˚ 26' N (Magellan, no satellite confirm)",119˚ 01.12 E,,2004,,0,0,0,1,1,0,1,0,?,0,?,0,3,1,0,1,
Fengguosi,http://art.vanderbilt.edu/Fengguosi_Daxiongdian,Fengguosi_Daxiongdian,Daxiongdian,,1,86,39,Daxiongdian,,大雄殿 also 大雄寶殿,1020,1020,1020,41.5430333,121.2424167,41˚ 32.582' N (Garmin),121˚ 14.545' E,"Daxiongdian: 開 泰 九 年 正 月 十 四 起 工 (Feb. 10, 1020) ",2008,,0,0,0,1?,1,1,1,0,1,1,0,0,2,0,0,1,
Zhaorensi,http://art.vanderbilt.edu/Zhaorensi_Dadian,Zhaorensi_Dadian,Dadian,,3,109,57,Dadian,Main Hall Tang?,,618-907,618,907,,,"35˚ 12' 15.89"" N  found on google earth, no satellite ","107˚ 47' 50.63"" E ","date of main hall not listed in ZGMSCD, p. 1026,--Tang?",*,,,,,,,,,,,,,,,,,,
Fawangmiao,http://art.vanderbilt.edu/Fawangmiao,Fawangmiao,,,6,779,482,,,,,,,,,,,Yuan-style back offering hall; see: http://www.hancheng.gov.cn/hcly/view.aspx?id=6302,n/a?,,,,,,,,,,,,,,,,,,
Gesaer,http://art.vanderbilt.edu/Gesaer_30_Great_Generals_pagodas,Gesaer_30_Great_Generals_pagodas,30_Great_Generals_pagodas,,6,805,508,,30 Great General's pagodas,,,,,,,,,uncertain date of individual buildings,n/a?,,,,,,,,,,,,,,,,,,
Bucun,http://art.vanderbilt.edu/Bucun_Yuhuangmiao_Front_Hall,Bucun_Yuhuangmiao_Front_Hall,Yuhuangmiao_Front_Hall,,,,,,Yuhuangmiao Front Hall,,907-960,907,960,36.0078,112.9334667,36˚ 00.468' (Garmin),112˚ 56.008',Five Dynasties?,2010,,0,0,0,0,0,0,1,0,?,0,0,0,0,1,1,0,
Bucun,http://art.vanderbilt.edu/Bucun_Yuhuangmiao_Back_Hall,Bucun_Yuhuangmiao_Back_Hall,Yuhuangmiao_Back_Hall,,,,,,Yuhuangmiao Back Hall,,1125-1234,1125,1234,36.00795,112.9334667,36˚ 00.468' (Garmin),112˚ 56.008,Jin,2010,,0,0,0,0,0,1,0,1,?,,,,1,1?,0,1,
Xiaozhangcun,http://art.vanderbilt.edu/Xiaozhangcun_Biyunsi,Xiaozhangcun_Biyunsi,Biyunsi,,,,,Biyunsi,,,,,,36.17146667,112.8389833,,,,2010,,,,,,,,,,,,,,,,,,
Chongjiaosi,http://art.vanderbilt.edu/Chongjiaosi_Zhengdian,Chongjiaosi_Zhengdian,Zhengdian,,,,,Zhengdian,Main Hall Song?,,978-1125,978,1125,36.34316667,113.11315,36˚ 20.590',113˚ 06.789',bracketing looks Jin,2010,,1,0,0,0,0,1,0,1,？,0,1,0,2,1,1,0,
Zhangzi,http://art.vanderbilt.edu/Zhangzi_Fujunmiao,Zhangzi_Fujunmiao,Fujunmiao,,,,,Fujunmiao,,宋-明,960-1546,960,1546,36.11985,112.8771667,36˚ 07. 191',112˚ 52.630',Song? But renovated in Ming,2010,,0,0,0,？,？,1,0,1,1,0,1,0,2,0,0,1,
Qinshui,http://art.vanderbilt.edu/Qinshui_Cuifujunmiao_Fujundian,Qinshui_Cuifujunmiao_Fujundian,Cuifujunmiao_Fujundian,,,,,Cuifujunmiao Fujundian,Fujundian Jin,,1125-1234,1125,1234,35.63165,112.5239667,35˚ 37.899' (Garmin),112˚ 31.438,,2010,,0,0,0,0,1,1,0,1,1,0,1,1,1,1,1,0,
Langbi,http://art.vanderbilt.edu/Langbi_Shengtiansi,Langbi_Shengtiansi,Shengtiansi,,,,,Shengtiansi,Main Hall,,960-1125,960,1125,35.76526667,112.3737333,35˚ 45.916' (Garmin),112˚ 22.424',,2010,,0,0,0,0,1,1,0,1,1?,0,0,0,0,1,0,1,
Qinshui,http://art.vanderbilt.edu/Qinshui_Longyansi_Shanmen,Qinshui_Longyansi_Shanmen,Longyansi_Shanmen,,,,,Longyansi Shanmen,,,1125-1234,1125,1234,35.60273333,111.97115,35˚ 36.164' (Garmin),111˚ 97.115',,,,0,0,0,0,1,1,1,0,1,0,1,0,2,0,0,1,
Qinshui,http://art.vanderbilt.edu/Qinshui_Shundimiao_Dadian,Qinshui_Shundimiao_Dadian,Shundimiao_Dadian,,,,,Shundimiao Dadian,Main Hall,,1125-1234,1125,1234,35.60493333,111.97245,35˚ 36.296' (Garmin),111˚ 58.347,,,,0,0,0,0,1,1,0,1,1,0,1,0,1,0,0,1,
Quwo,http://art.vanderbilt.edu/Quwo_Dabeiyuan_Guodian,Quwo_Dabeiyuan_Guodian,Dabeiyuan_Guodian,,,,,Dabeiyuan Guodian,,,1180,1180,1180,35.73436667,111.5450667,35˚ 44。062,111˚ 32.704',,,,0,0,0,1,1,1,0,1,1,0,1,0,2,0,0,1,
Qixian,http://art.vanderbilt.edu/Qixian_Xingfansi,Qixian_Xingfansi,Xingfansi,,,,,Xingfansi,Zhengdian,,960-1125,960,1125,37.39033333,112.4500667,37˚ 23.420' (Garmin),112˚ 27.004',,,,0,0,0,1,1,1,0,1,1,0,0,0,0,0,0,1,
Guanghuasi,http://art.vanderbilt.edu/Guanghuasi,Guanghuasi,,,,,,,,,1125-1234,1125,1234,37.36166667,112.4942,,,,,,0,0,0,0,0,1,0,1,1,0,1,0,1,0,0,1,
